[
  {"_id":"57be84b153774f1478eeb77c","verified":false,"name":"Centre Pasteur du Cameroun","contact":{"phone":null,"twitter":null,"foursquare":"528b454411d2016fe4a3f466","facebook":null,"facebookName":null},"location":{"city":null,"cc":"CM","country":"Cameroon","formattedAddresss":null,"state":null,"address":null,"lat":3.87810615432176,"lng":11.512132891790314},"categories":[{"shortName":"Medical Lab","foursquare":"4f4531b14b9074f6e4fb0103","name":"Medical Lab"}]},
  {"_id":"57be84b153774f1478eeb77d","verified":false,"name":"Rond Point Express","contact":{"phone":null,"twitter":null,"foursquare":"51780e92e4b0f36122befff5","facebook":null,"facebookName":null},"location":{"city":null,"cc":"CM","country":"Cameroon","formattedAddresss":null,"state":null,"address":null,"lat":3.8363340051725388,"lng":11.48445110292526},"categories":[{"shortName":"Other Outdoors","foursquare":"4bf58dd8d48988d162941735","name":"Other Great Outdoors"}]},
  {"_id":"57be84b153774f1478eeb77e","verified":false,"name":"Solomon Tandeng Muna Fouundation","contact":{"phone":null,"twitter":null,"foursquare":"521f5f6811d2612762c3aac9","facebook":null,"facebookName":null},"location":{"city":null,"cc":"CM","country":"Cameroon","formattedAddresss":null,"state":null,"address":null,"lat":3.8700463259383673,"lng":11.517127401491514},"categories":[{"shortName":"Hobbies","foursquare":"4bf58dd8d48988d1fb941735","name":"Hobby Shop"}]},
  {"_id":"57be873353774f1478eeb77f","verified":true,"name":"Hilton Yaounde","contact":{"phone":"22233646","twitter":"hiltonhotels","foursquare":"4bc8b32dc1c6eee1bfd8fd92","facebook":"137619719644857","facebookName":"Hilton Bonn"},"location":{"city":"Yaoundé","cc":"CM","country":"Cameroon","formattedAddresss":["Boulevard du 20 Mai","Yaoundé 11852"],"state":"Center","address":"Boulevard du 20 Mai","lat":3.8643980543805476,"lng":11.515950894947037},"categories":[{"shortName":"Hotel","foursquare":"4bf58dd8d48988d1fa931735","name":"Hotel"}]},
  {"_id":"57be873353774f1478eeb780","verified":false,"name":"Yaoundé","contact":{"phone":null,"twitter":null,"foursquare":"4ebdbad8f9f4d3ffc2b60835","facebook":null,"facebookName":null},"location":{"city":null,"cc":"CM","country":"Cameroon","formattedAddresss":null,"state":"Central","address":null,"lat":3.8687932879321543,"lng":11.521568298339842},"categories":[{"shortName":"City","foursquare":"50aa9e094b90af0d42d5de0d","name":"City"}]},
  {"_id":"57be873353774f1478eeb781","verified":false,"name":"Avenue Kenedy, Yaounde Centrale","contact":{"phone":null,"twitter":null,"foursquare":"5052ffc5e4b02204c1ae2d8a","facebook":null,"facebookName":null},"location":{"city":null,"cc":"CM","country":"Cameroon","formattedAddresss":null,"state":null,"address":null,"lat":3.8649477016850224,"lng":11.520096476015498},"categories":[{"shortName":"Flea Market","foursquare":"4bf58dd8d48988d1f7941735","name":"Flea Market"}]},
  {"_id":"57be873353774f1478eeb782","verified":false,"name":"Calafatas","contact":{"phone":null,"twitter":null,"foursquare":"4fa4220de4b098f42a3e79e2","facebook":null,"facebookName":null},"location":{"city":null,"cc":"CM","country":"Cameroon","formattedAddresss":null,"state":null,"address":null,"lat":3.8713195845393864,"lng":11.517388232611502},"categories":[{"shortName":"Bakery","foursquare":"4bf58dd8d48988d16a941735","name":"Bakery"}]},
  {"_id":"57be873353774f1478eeb783","verified":false,"name":"Smile","contact":{"phone":null,"twitter":null,"foursquare":"4fa424f0e4b052ea28b208a0","facebook":null,"facebookName":null},"location":{"city":null,"cc":"CM","country":"Cameroon","formattedAddresss":null,"state":null,"address":null,"lat":3.8706872432574797,"lng":11.516261668940935},"categories":[{"shortName":"Bar","foursquare":"4bf58dd8d48988d116941735","name":"Bar"}]},
  {"_id":"57be873353774f1478eeb784","verified":false,"name":"La Falaise Hotel","contact":{"phone":null,"twitter":null,"foursquare":"53dcaf16498ed105449e7b4a","facebook":null,"facebookName":null},"location":{"city":null,"cc":"CM","country":"Cameroon","formattedAddresss":null,"state":null,"address":null,"lat":3.8702922691877064,"lng":11.515745562649492},"categories":[{"shortName":"Building","foursquare":"4bf58dd8d48988d130941735","name":"Building"}]},
  {"_id":"57be873353774f1478eeb785","verified":false,"name":"Olympic Night Club","contact":{"phone":null,"twitter":null,"foursquare":"4dc3592745dd2645523c5fec","facebook":null,"facebookName":null},"location":{"city":"Yaoundé","cc":"CM","country":"Cameroon","formattedAddresss":["Yaoundé"],"state":"Centre","address":null,"lat":3.8712531447077274,"lng":11.515751112165608},"categories":[{"shortName":"Nightclub","foursquare":"4bf58dd8d48988d11f941735","name":"Nightclub"}]},
  {"_id":"57be873353774f1478eeb786","verified":false,"name":"Merina Hotel Yaounde","contact":{"phone":null,"twitter":null,"foursquare":"4e32ef8dd1643f0b04b2325a","facebook":null,"facebookName":null},"location":{"city":null,"cc":"CM","country":"Cameroon","formattedAddresss":null,"state":null,"address":null,"lat":3.864309100334405,"lng":11.519080876308935},"categories":[{"shortName":"Hotel","foursquare":"4bf58dd8d48988d1fa931735","name":"Hotel"}]},
  {"_id":"57be873353774f1478eeb787","verified":false,"name":"MTN Direction Regionale","contact":{"phone":null,"twitter":null,"foursquare":"51920999498eeb56534dde4a","facebook":null,"facebookName":null},"location":{"city":null,"cc":"CM","country":"Cameroon","formattedAddresss":null,"state":null,"address":null,"lat":3.8702123780443087,"lng":11.516922066823996},"categories":[{"shortName":"Building","foursquare":"4bf58dd8d48988d130941735","name":"Building"}]},
  {"_id":"57be873353774f1478eeb788","verified":false,"name":"Marché Central","contact":{"phone":null,"twitter":null,"foursquare":"5069b119e4b08aab614a96e1","facebook":null,"facebookName":null},"location":{"city":"Yaoundé","cc":"CM","country":"Cameroon","formattedAddresss":["Yaoundé"],"state":"Centre","address":null,"lat":3.8672461701096816,"lng":11.51750477439146},"categories":[{"shortName":"Neighborhood","foursquare":"4f2a25ac4b909258e854f55f","name":"Neighborhood"}]},
  {"_id":"57be873353774f1478eeb789","verified":false,"name":"Maison Du Cafe","contact":{"phone":null,"twitter":null,"foursquare":"53ad8c28498ee541879244d7","facebook":null,"facebookName":null},"location":{"city":null,"cc":"CM","country":"Cameroon","formattedAddresss":null,"state":null,"address":null,"lat":3.8683863654014026,"lng":11.51931951358217},"categories":[{"shortName":"Café","foursquare":"4bf58dd8d48988d16d941735","name":"Café"}]},
  {"_id":"57be873353774f1478eeb78a","verified":true,"name":"Ô Vive Restaurant-by-the-pool","contact":{"phone":"22233646","twitter":"hiltonhotels","foursquare":"50ca02c2245f2d4aa8c2bb74","facebook":"137619719644857","facebookName":"Hilton Bonn"},"location":{"city":"Yaounde","cc":"CM","country":"Cameroon","formattedAddresss":["Boulevard du 20 Mai (Hilton Yaounde)","Yaounde 11852"],"state":"NA","address":"Boulevard du 20 Mai","lat":3.864344458898728,"lng":11.516017489294535},"categories":[{"shortName":"Restaurant","foursquare":"4bf58dd8d48988d1c4941735","name":"Restaurant"}]},
  {"_id":"57be873353774f1478eeb78b","verified":false,"name":"Mahima","contact":{"phone":null,"twitter":null,"foursquare":"4dcbb63345dd3831228a028f","facebook":null,"facebookName":null},"location":{"city":"Yaoundé","cc":"CM","country":"Cameroon","formattedAddresss":["Yaoundé"],"state":"Centre","address":null,"lat":3.869943269162507,"lng":11.514852094495277},"categories":[{"shortName":"Food \u0026 Drink","foursquare":"4bf58dd8d48988d1f9941735","name":"Food \u0026 Drink Shop"}]},
  {"_id":"57be873353774f1478eeb78c","verified":false,"name":"Intendance","contact":{"phone":null,"twitter":null,"foursquare":"53ae35ce498e6b0d6e926147","facebook":null,"facebookName":null},"location":{"city":"Yaoundé","cc":"CM","country":"Cameroon","formattedAddresss":["Yaoundé"],"state":"Centre","address":null,"lat":3.866312153239634,"lng":11.520085376510483},"categories":[{"shortName":"Road","foursquare":"4bf58dd8d48988d1f9931735","name":"Road"}]},
  {"_id":"57be873353774f1478eeb78d","verified":false,"name":"MINPOSTEL","contact":{"phone":null,"twitter":null,"foursquare":"52372da111d2c78a0352e74a","facebook":null,"facebookName":null},"location":{"city":null,"cc":"CM","country":"Cameroon","formattedAddresss":null,"state":null,"address":null,"lat":3.866175843265661,"lng":11.513059632316196},"categories":[{"shortName":"Government","foursquare":"4bf58dd8d48988d126941735","name":"Government Building"}]},
  {"_id":"57be873353774f1478eeb78e","verified":false,"name":"Djeuga Palace Hotel Yaounde","contact":{"phone":null,"twitter":null,"foursquare":"4bcf79000ffdce726385b2c0","facebook":null,"facebookName":null},"location":{"city":"Yaoundé","cc":"CM","country":"Cameroon","formattedAddresss":["Avenue Narvick","Yaoundé"],"state":"Centre","address":"Avenue Narvick","lat":3.87135,"lng":11.515755},"categories":[{"shortName":"Hotel","foursquare":"4bf58dd8d48988d1fa931735","name":"Hotel"}]},
  {"_id":"57be873353774f1478eeb78f","verified":false,"name":"Hilton Health Club","contact":{"phone":null,"twitter":null,"foursquare":"4fa6420be4b00f7195bdd437","facebook":null,"facebookName":null},"location":{"city":null,"cc":"CM","country":"Cameroon","formattedAddresss":null,"state":null,"address":null,"lat":3.8646456919752263,"lng":11.51610073229009},"categories":[{"shortName":"Gym","foursquare":"4bf58dd8d48988d176941735","name":"Gym"}]},
  {"_id":"57be873353774f1478eeb790","verified":false,"name":"Piscine Hilton Hotel","contact":{"phone":null,"twitter":null,"foursquare":"4f37ceafe4b0edf91d554b74","facebook":null,"facebookName":null},"location":{"city":"Yaoundé","cc":"CM","country":"Cameroon","formattedAddresss":["Boulevard du 20 Mai","Yaoundé"],"state":"Centre","address":"Boulevard du 20 Mai","lat":3.8642929922812495,"lng":11.516156227658229},"categories":[{"shortName":"Pool","foursquare":"4bf58dd8d48988d15e941735","name":"Pool"}]},
  {"_id":"57be873353774f1478eeb791","verified":false,"name":"Mahima Electronique","contact":{"phone":null,"twitter":null,"foursquare":"57445ace498e8b1ee2910697","facebook":null,"facebookName":null},"location":{"city":"Yaoundé","cc":"CM","country":"Cameroon","formattedAddresss":["Warda (A côté de Mahima)","Yaoundé"],"state":"Centre","address":"Warda","lat":3.870603,"lng":11.515143},"categories":[{"shortName":"Electronics","foursquare":"4bf58dd8d48988d122951735","name":"Electronics Store"}]},
  {"_id":"57be873353774f1478eeb792","verified":false,"name":"SCB Cameroun, Agence Régionale","contact":{"phone":null,"twitter":null,"foursquare":"52939696498ec4d4d8ecc3dc","facebook":null,"facebookName":null},"location":{"city":"Yaoundé","cc":"CM","country":"Cameroon","formattedAddresss":["Carrefour Étoile (Bvd du 20 Mai 1972)","Yaoundé"],"state":"Centre","address":"Carrefour Étoile","lat":3.866992004271679,"lng":11.515035227081244},"categories":[{"shortName":"Bank","foursquare":"4bf58dd8d48988d10a951735","name":"Bank"}]},
  {"_id":"57be873353774f1478eeb793","verified":false,"name":"Breakfast Hilton","contact":{"phone":null,"twitter":null,"foursquare":"507e7102e4b0d17b6ffa2f93","facebook":null,"facebookName":null},"location":{"city":null,"cc":"CM","country":"Cameroon","formattedAddresss":null,"state":null,"address":null,"lat":3.8643485644899056,"lng":11.516017489294535},"categories":[{"shortName":"Breakfast","foursquare":"4bf58dd8d48988d143941735","name":"Breakfast Spot"}]},
  {"_id":"57be873353774f1478eeb794","verified":false,"name":"Ministere de L'Enseignement Superieur","contact":{"phone":null,"twitter":null,"foursquare":"4c88b8d50f3c236a76d1f45c","facebook":null,"facebookName":null},"location":{"city":null,"cc":"CM","country":"Cameroon","formattedAddresss":null,"state":null,"address":null,"lat":3.8674234565465473,"lng":11.515518032748874},"categories":[]},
  {"_id":"57be873353774f1478eeb795","verified":false,"name":"Black and White (Djeuga)","contact":{"phone":null,"twitter":null,"foursquare":"55e35a9e498e7d180ed61c01","facebook":null,"facebookName":null},"location":{"city":"Yaoundé","cc":"CM","country":"Cameroon","formattedAddresss":["Montée du Djeuga Palace","Yaoundé"],"state":"Centre","address":null,"lat":3.87120495494456,"lng":11.515617923862207},"categories":[{"shortName":"Lounge","foursquare":"4bf58dd8d48988d121941735","name":"Lounge"}]},
  {"_id":"57be873353774f1478eeb796","verified":false,"name":"Credit foncier (Direction Générale)","contact":{"phone":null,"twitter":null,"foursquare":"52bc2653498e22161f116e1e","facebook":null,"facebookName":null},"location":{"city":null,"cc":"CM","country":"Cameroon","formattedAddresss":["Avenue Du 20 Mai"],"state":null,"address":"Avenue Du 20 Mai","lat":3.864462,"lng":11.517112},"categories":[{"shortName":"Building","foursquare":"4bf58dd8d48988d130941735","name":"Building"}]},
  {"_id":"57be873353774f1478eeb797","verified":false,"name":"espace landmark","contact":{"phone":null,"twitter":null,"foursquare":"567a98d8498ef191735b47ab","facebook":null,"facebookName":null},"location":{"city":null,"cc":"CM","country":"Cameroon","formattedAddresss":null,"state":null,"address":null,"lat":3.866068659101697,"lng":11.517965393206612},"categories":[{"shortName":"Department Store","foursquare":"4bf58dd8d48988d1f6941735","name":"Department Store"}]},
  {"_id":"57be873353774f1478eeb798","verified":false,"name":"Minmap (ministère des marchés publics)","contact":{"phone":null,"twitter":null,"foursquare":"51f2a929498e5ccaacc44f06","facebook":null,"facebookName":null},"location":{"city":null,"cc":"CM","country":"Cameroon","formattedAddresss":null,"state":null,"address":null,"lat":3.8704771881764852,"lng":11.516489200501566},"categories":[{"shortName":"Government","foursquare":"4bf58dd8d48988d126941735","name":"Government Building"}]},
  {"_id":"57be873353774f1478eeb799","verified":false,"name":"La Maison Du Café","contact":{"phone":null,"twitter":null,"foursquare":"56163e73498e52c72fd800a4","facebook":null,"facebookName":null},"location":{"city":null,"cc":"CM","country":"Cameroon","formattedAddresss":null,"state":null,"address":null,"lat":3.86761075612544,"lng":11.5197301929879},"categories":[{"shortName":"Coffee Shop","foursquare":"4bf58dd8d48988d1e0931735","name":"Coffee Shop"}]},
  {"_id":"57be873353774f1478eeb79a","verified":false,"name":"S.C.B Cameroun (avenue kennedy)","contact":{"phone":null,"twitter":null,"foursquare":"533bd3da498ea1bb4c120334","facebook":null,"facebookName":null},"location":{"city":"Yaoundé","cc":"CM","country":"Cameroon","formattedAddresss":["Avenue Kennedy","Yaoundé"],"state":"Centre","address":"Avenue Kennedy","lat":3.8641035789182436,"lng":11.519297314742495},"categories":[{"shortName":"Bank","foursquare":"4bf58dd8d48988d10a951735","name":"Bank"}]},
  {"_id":"57be873353774f1478eeb79b","verified":false,"name":"Campost","contact":{"phone":null,"twitter":null,"foursquare":"4daea806f7b17488f4954830","facebook":null,"facebookName":null},"location":{"city":"Yaoundé","cc":"CM","country":"Cameroon","formattedAddresss":["Yaoundé"],"state":"Centre","address":null,"lat":3.867684,"lng":11.514746},"categories":[{"shortName":"Post Office","foursquare":"4bf58dd8d48988d172941735","name":"Post Office"}]}
]